{"type": "FeatureCollection", "features": [{"type": "Feature", "geometry": {"type": "Point", "coordinates": ["10.7938365", "44.2077372"]}, "properties": {"cartodb_id": "0", "name": "Bastagli Remo ", "luogonascita": "Fanano", "datanascita": "26-06-1925", "intervista": "7.5.2004  Fanano abitazione", "qualifica": "RSI", "lat": "10.7938365", "lon": "44.2077372"}}, {"type": "Feature", "geometry": {"type": "Point", "coordinates": ["10.6477331", "44.1799513"]}, "properties": {"cartodb_id": "1", "name": "Donati Paolo", "luogonascita": "Fiumalbo ", "datanascita": "2-09-1920 ", "intervista": "28-10-2005 Fiumalbo  abitazione*non registrata", "qualifica": "Partigiano", "lat": "10.6477331", "lon": "44.1799513"}}, {"type": "Feature", "geometry": {"type": "Point", "coordinates": ["10.6477331", "44.1799513"]}, "properties": {"cartodb_id": "2", "name": "Nardini Umberto", "luogonascita": "Fiumalbo", "datanascita": "24-11-1921", "intervista": "28-10-2005 \nFiumalbo abitazione*non registrata", "qualifica": "Partigiano", "lat": "10.6477331", "lon": "44.1799513"}}, {"type": "Feature", "geometry": {"type": "Point", "coordinates": ["10.8936684", "44.1615923"]}, "properties": {"cartodb_id": "3", "name": "Lanzi Luciano", "luogonascita": "Bologna", "datanascita": "10-12-1921", "intervista": "02-08-2002 \nFarn\u00e8 Lizzano Belvedere\n    +\nVideo collettiva partigiani in Zola Predosa, abitazione Borgatti DATA?", "qualifica": "partigiano", "lat": "10.8936684", "lon": "44.1615923"}}, {"type": "Feature", "geometry": {"type": "Point", "coordinates": ["10.7938365", "44.2077372"]}, "properties": {"cartodb_id": "4", "name": "Tassinari\n Ennio", "luogonascita": "Sant'Alberto di Ravenna", "datanascita": "1921", "intervista": "-29-09-2002\n-27-10-2002\n-23-03-2003\nFanano\n   +\nVideo collettiva partigiani in Zola Predosa", "qualifica": "Partigiano, OSS", "lat": "10.7938365", "lon": "44.2077372"}}, {"type": "Feature", "geometry": {"type": "Point", "coordinates": ["10.771404", "44.230455"]}, "properties": {"cartodb_id": "5", "name": "Orlando Pini", "luogonascita": "Sestola", "datanascita": "25-02-1926", "intervista": "25-01-2003\nSestola abitazione", "qualifica": "civile", "lat": "10.771404", "lon": "44.230455"}}, {"type": "Feature", "geometry": {"type": "Point", "coordinates": ["10.8029511", "44.217796"]}, "properties": {"cartodb_id": "6", "name": "Covili Livio", "luogonascita": "Serrazzone", "datanascita": "12-08-1921", "intervista": "25-02-2003\nLocalit\u00e0\u00a0 Santa Croce di Fanano abitazione", "qualifica": "Militare", "lat": "10.8029511", "lon": "44.217796"}}, {"type": "Feature", "geometry": {"type": "Point", "coordinates": ["10.8029511", "44.217796"]}, "properties": {"cartodb_id": "7", "name": "Bonacorsi  Alma", "luogonascita": "Serrazzone", "datanascita": "27.04.1924", "intervista": "25.02.2003 Localit\u00e0\u00a0 Santa Croce di Fanano abitazione", "qualifica": "civile", "lat": "10.8029511", "lon": "44.217796"}}, {"type": "Feature", "geometry": {"type": "Point", "coordinates": ["10.7964879", "44.2085122"]}, "properties": {"cartodb_id": "8", "name": "Turchi Ciro", "luogonascita": "Fanano", "datanascita": "2.2.1925", "intervista": "-29-11-2000\nHotel Eden\n+ 16-03-2003\nFanano Pedrocco abitazione", "qualifica": "partigiano", "lat": "10.7964879", "lon": "44.2085122"}}, {"type": "Feature", "geometry": {"type": "Point", "coordinates": ["10.7964879", "44.2085122"]}, "properties": {"cartodb_id": "9", "name": "Cattinari Mario", "luogonascita": "Fanano", "datanascita": "26-05-1927", "intervista": "28-04-2003 \nFanano Vallicella abitazione", "qualifica": "civile", "lat": "10.7964879", "lon": "44.2085122"}}, {"type": "Feature", "geometry": {"type": "Point", "coordinates": ["10.7938365", "44.2077372"]}, "properties": {"cartodb_id": "10", "name": "Bompani  Ezio ", "luogonascita": "Modena", "datanascita": "04-12-1924", "intervista": "-17-08-2003 \n-22-07-2002\nFanano\n    +\nVideo collettiva: Zola Predosa ", "qualifica": "partigiano", "lat": "10.7938365", "lon": "44.2077372"}}, {"type": "Feature", "geometry": {"type": "Point", "coordinates": ["11.0090928", "44.4784141"]}, "properties": {"cartodb_id": "11", "name": "Monari Teresa", "luogonascita": "Sorba di Castelluccio in Montese", "datanascita": "?", "intervista": "22-03-2004\nVignola abitazione in audio e in video", "qualifica": "partigiana", "lat": "11.0090928", "lon": "44.4784141"}}, {"type": "Feature", "geometry": {"type": "Point", "coordinates": ["10.9255707", "44.6458885"]}, "properties": {"cartodb_id": "12", "name": "Colombini\n Ezio", "luogonascita": "Modena", "datanascita": "1925", "intervista": "16-06-2004\nModena abitazione", "qualifica": "partigiano", "lat": "10.9255707", "lon": "44.6458885"}}, {"type": "Feature", "geometry": {"type": "Point", "coordinates": ["10.7938365", "44.2077372"]}, "properties": {"cartodb_id": "13", "name": "Sargenti  Ezio", "luogonascita": "Fanano", "datanascita": "1925", "intervista": "23-01-2002\nFanano abitazione", "qualifica": "civile", "lat": "10.7938365", "lon": "44.2077372"}}, {"type": "Feature", "geometry": {"type": "Point", "coordinates": ["10.7938365", "44.2077372"]}, "properties": {"cartodb_id": "14", "name": "Galli Concetta", "luogonascita": "Sestola", "datanascita": "1930", "intervista": "23-01-2002\nFanano Abitazione", "qualifica": "civile", "lat": "10.7938365", "lon": "44.2077372"}}, {"type": "Feature", "geometry": {"type": "Point", "coordinates": ["10.7938365", "44.2077372"]}, "properties": {"cartodb_id": "15", "name": "Leonelli Isaia", "luogonascita": "Ospitale di Fanano", "datanascita": "1912", "intervista": "15-05-2002\nFanano Abitazione", "qualifica": "civile", "lat": "10.7938365", "lon": "44.2077372"}}, {"type": "Feature", "geometry": {"type": "Point", "coordinates": ["10.7938365", "44.2077372"]}, "properties": {"cartodb_id": "16", "name": "Mescoli Enrico", "luogonascita": "Castelnuovo Rangone", "datanascita": "11-04-1926", "intervista": "8-07-2002\nOspitale, Fanano \n   +\nVideo collettiva: Zola Predosa", "qualifica": "partigiano", "lat": "10.7938365", "lon": "44.2077372"}}, {"type": "Feature", "geometry": {"type": "Point", "coordinates": ["10.903993", "44.3275783"]}, "properties": {"cartodb_id": "17", "name": "Bugni Ermenegildo", "luogonascita": "L'Aquila", "datanascita": "02-11-1927", "intervista": "16-07-2002\nVerica di Pavullo  ", "qualifica": "partigiano", "lat": "10.903993", "lon": "44.3275783"}}, {"type": "Feature", "geometry": {"type": "Point", "coordinates": ["10.7938365", "44.2077372"]}, "properties": {"cartodb_id": "18", "name": "Piombini Pietro", "luogonascita": "Sestola", "datanascita": "25-09-1921", "intervista": "01-08-2002\nFanano Abitazione", "qualifica": "Partigiano", "lat": "10.7938365", "lon": "44.2077372"}}, {"type": "Feature", "geometry": {"type": "Point", "coordinates": ["10.7938365", "44.2077372"]}, "properties": {"cartodb_id": "19", "name": "Gambaiani Ennio", "luogonascita": "Fanano", "datanascita": "17.2.1926", "intervista": "29-10-2000\nHotel Eden Fanano", "qualifica": "Partigiano", "lat": "10.7938365", "lon": "44.2077372"}}, {"type": "Feature", "geometry": {"type": "Point", "coordinates": ["10.8395685", "44.2501445"]}, "properties": {"cartodb_id": "20", "name": "Ferrari Cesare", "luogonascita": "Rocchetta Sandri", "datanascita": "?", "intervista": "02-11-2000 Rocchetta Sandri Abitazione ", "qualifica": "partigiano ", "lat": "10.8395685", "lon": "44.2501445"}}, {"type": "Feature", "geometry": {"type": "Point", "coordinates": ["10.7938365", "44.2077372"]}, "properties": {"cartodb_id": "21", "name": "Rocchi Gioacchino", "luogonascita": "Fanano ", "datanascita": "13-11-1920\n", "intervista": "04-11-2000\nFanano Hotel Eden", "qualifica": "partigiano", "lat": "10.7938365", "lon": "44.2077372"}}, {"type": "Feature", "geometry": {"type": "Point", "coordinates": ["10.7938365", "44.2077372"]}, "properties": {"cartodb_id": "22", "name": "Nicoletti Bartolomeo", "luogonascita": "Riolunato", "datanascita": "17.06.1920", "intervista": "05-11-2000 Fanano, localit\u00e0\u00a0 Casa Barba\nAbitazione", "qualifica": "partigiano", "lat": "10.7938365", "lon": "44.2077372"}}, {"type": "Feature", "geometry": {"type": "Point", "coordinates": ["10.8395685", "44.2501445"]}, "properties": {"cartodb_id": "23", "name": "Bernabei Gaetano", "luogonascita": "Rocchetta Sandri", "datanascita": "1924", "intervista": "07-11-2000\nRocchetta Sandri Abitazione", "qualifica": "partigiano", "lat": "10.8395685", "lon": "44.2501445"}}, {"type": "Feature", "geometry": {"type": "Point", "coordinates": ["10.7938365", "44.2077372"]}, "properties": {"cartodb_id": "24", "name": "Bonaccorsi Ivo", "luogonascita": "Trentino di Fanano", "datanascita": "8.3.1925", "intervista": "09-11-2000\nPrato Gallese in Fanano Abitazione", "qualifica": "partigiano", "lat": "10.7938365", "lon": "44.2077372"}}, {"type": "Feature", "geometry": {"type": "Point", "coordinates": ["10.7938365", "44.2077372"]}, "properties": {"cartodb_id": "25", "name": "Rocchi Giacomo", "luogonascita": "Fanano", "datanascita": "12-05-1927", "intervista": "14-11-2000\nHotel Eden Fanano", "qualifica": "partigiano", "lat": "10.7938365", "lon": "44.2077372"}}, {"type": "Feature", "geometry": {"type": "Point", "coordinates": ["10.8395685", "44.2501445"]}, "properties": {"cartodb_id": "26", "name": "Sarti Aristide", "luogonascita": "Sestola", "datanascita": "?", "intervista": "19-11-2000\nLocalit\u00e0 Le Vignole, Rocchetta Sandri Abitazione", "qualifica": "partigiano", "lat": "10.8395685", "lon": "44.2501445"}}, {"type": "Feature", "geometry": {"type": "Point", "coordinates": ["10.7855092", "44.2033009"]}, "properties": {"cartodb_id": "27", "name": "Muzzarelli Adelmo", "luogonascita": "Fanano", "datanascita": "18.11.21", "intervista": "20-11-2000\nMadonna del Ponte-Casa Muzzarelli in Fanano Abitazione ", "qualifica": "partigiano", "lat": "10.7855092", "lon": "44.2033009"}}, {"type": "Feature", "geometry": {"type": "Point", "coordinates": ["10.771404", "44.230455"]}, "properties": {"cartodb_id": "28", "name": "Mariani Armando", "luogonascita": "Sestola", "datanascita": "1921", "intervista": "22-11-2000\nSestola Abitazione", "qualifica": "partigiano", "lat": "10.771404", "lon": "44.230455"}}, {"type": "Feature", "geometry": {"type": "Point", "coordinates": ["10.7938365", "44.2077372"]}, "properties": {"cartodb_id": "29", "name": "Poli Orlando", "luogonascita": "Copparo (FE)", "datanascita": "1916", "intervista": "30-11-2000\nHotel Eden Fanano", "qualifica": "Partigiano", "lat": "10.7938365", "lon": "44.2077372"}}, {"type": "Feature", "geometry": {"type": "Point", "coordinates": ["10.7938365", "44.2077372"]}, "properties": {"cartodb_id": "30", "name": "Chiarotti Pietro", "luogonascita": "1927", "datanascita": "Ospitale", "intervista": "06-12-2000\nFanano", "qualifica": "Partigiano", "lat": "10.7938365", "lon": "44.2077372"}}, {"type": "Feature", "geometry": {"type": "Point", "coordinates": ["10.7767713", "44.2379157"]}, "properties": {"cartodb_id": "31", "name": "Zecchini Antonio", "luogonascita": "Sestola", "datanascita": "?", "intervista": "19-12-2000\nLocalit\u00e0\u00a0 La Macciola in Fanano Abitazione", "qualifica": "Partigiano", "lat": "10.7767713", "lon": "44.2379157"}}, {"type": "Feature", "geometry": {"type": "Point", "coordinates": ["10.7890543", "44.1659199"]}, "properties": {"cartodb_id": "32", "name": "Tagliazucchi Arcangelo", "luogonascita": "Ospitale di Fanano", "datanascita": "?", "intervista": "28-12-2000\nOspitale Abitazione", "qualifica": "partigiano", "lat": "10.7890543", "lon": "44.1659199"}}, {"type": "Feature", "geometry": {"type": "Point", "coordinates": ["10.81896165138", "44.2417473986312"]}, "properties": {"cartodb_id": "33", "name": "Ferrari Maria", "luogonascita": "Rocchetta Sandri", "datanascita": "1922", "intervista": "28-02-2001\nTrentino nel Frignano", "qualifica": "civile", "lat": "10.81896165138", "lon": "44.2417473986312"}}, {"type": "Feature", "geometry": {"type": "Point", "coordinates": ["10.8395685", "44.2501445"]}, "properties": {"cartodb_id": "34", "name": "Ciocci Vanda", "luogonascita": "Rocchetta Sandri", "datanascita": "1931", "intervista": "13-03-2001\nRocchetta, Le Vignole", "qualifica": "Civile", "lat": "10.8395685", "lon": "44.2501445"}}, {"type": "Feature", "geometry": {"type": "Point", "coordinates": ["10.8395685", "44.2501445"]}, "properties": {"cartodb_id": "35", "name": "Bettini Pietro denis", "luogonascita": "Vesale di Sestola", "datanascita": "1929", "intervista": "11-04-2001\nRocchetta Sandri Abitazione", "qualifica": "partigiano", "lat": "10.8395685", "lon": "44.2501445"}}, {"type": "Feature", "geometry": {"type": "Point", "coordinates": ["10.7950774", "44.2736743"]}, "properties": {"cartodb_id": "36", "name": "Cerfogli Diego", "luogonascita": "Castellaro di Sestola", "datanascita": "?", "intervista": "28-03-2001\nCasine di Sestola", "qualifica": "partigiano", "lat": "10.7950774", "lon": "44.2736743"}}, {"type": "Feature", "geometry": {"type": "Point", "coordinates": ["10.7938365", "44.2077372"]}, "properties": {"cartodb_id": "37", "name": "Dinelli Mario", "luogonascita": "Fanano", "datanascita": "1920", "intervista": "12-05-2001  Fanano Abitazione", "qualifica": "partigiano", "lat": "10.7938365", "lon": "44.2077372"}}, {"type": "Feature", "geometry": {"type": "Point", "coordinates": ["10.7938365", "44.2077372"]}, "properties": {"cartodb_id": "38", "name": "Ghibellini Iole", "luogonascita": "Rocca Corneta in Lizzano Belvedere", "datanascita": "29-01-1920", "intervista": "30-11-2000\nFanano, localit\u00e0\u00a0 Casa Barba Abitazione", "qualifica": "partigiana", "lat": "10.7938365", "lon": "44.2077372"}}], "crs": {"type": "name", "properties": {"name": "urn:ogc:def:crs:OGC:2:84"}}, "bbox": ["10.6477331", "44.1615923", "11.0090928", "44.6458885"]}